City_ID,City,Lat,Lng,Max Temp,Humidity,Cloudiness,Wind Speed,Country,Date
0,blackmans bay,-43.0167,147.3167,22.07,48,7,0.89,AU,2025-01-30
1,guerrero negro,27.9769,-114.0611,13.99,69,0,7.15,MX,2025-01-30
2,okha,53.5739,142.9478,-13.02,95,100,6.95,RU,2025-01-30
3,grytviken,-54.2811,-36.5092,4.66,65,83,3.89,GS,2025-01-30
4,port-aux-francais,-49.35,70.2167,6.93,90,100,16.39,TF,2025-01-30
5,port alfred,-33.5906,26.891,21.77,93,22,1.34,ZA,2025-01-30
6,fuerte olimpo,-21.0415,-57.8738,28.79,58,79,1.76,PY,2025-01-30
7,puerto natales,-51.7236,-72.4875,10.27,69,100,2.27,CL,2025-01-30
8,sandnessjoen,66.0217,12.6316,2.32,88,100,6.57,NO,2025-01-30
9,cidreira,-30.1811,-50.2056,22.46,81,98,2.16,BR,2025-01-30
10,houma,29.5958,-90.7195,22.78,81,100,5.14,US,2025-01-30
11,ilulissat,69.2167,-51.1,-11.31,56,84,6.51,GL,2025-01-30
12,kavieng,-2.5744,150.7967,29.61,64,37,2.39,PG,2025-01-30
13,ushuaia,-54.8,-68.3,9.81,66,20,10.8,AR,2025-01-30
14,pisco,-13.7,-76.2167,22.03,83,0,9.26,PE,2025-01-30
15,invercargill,-46.4,168.35,20.57,53,25,3.13,NZ,2025-01-30
16,uusikaupunki,60.8004,21.4084,0.2,94,96,3.59,FI,2025-01-30
17,vilyuchinsk,52.9306,158.4028,-1.85,74,100,3.64,RU,2025-01-30
18,pandan,14.0453,124.1694,26.08,86,96,6.89,PH,2025-01-30
19,stanley,54.868,-1.6985,2.51,84,100,2.06,GB,2025-01-30
20,guarapari,-20.6667,-40.4975,24.01,85,100,4.93,BR,2025-01-30
21,st. john's,47.5649,-52.7093,-7.79,86,40,11.83,CA,2025-01-30
22,waitangi,-43.9535,-176.5597,17.12,78,72,3.13,NZ,2025-01-30
23,college,64.8569,-147.8028,-25.52,68,75,0.0,US,2025-01-30
24,sorong,-0.8833,131.25,28.49,75,100,2.95,ID,2025-01-30
25,papatowai,-46.5619,169.4708,16.84,61,93,3.34,NZ,2025-01-30
26,adamstown,-25.066,-130.1015,25.01,73,100,6.32,PN,2025-01-30
27,sitka,57.0531,-135.33,-1.06,80,100,3.6,US,2025-01-30
28,arraial do cabo,-22.9661,-42.0278,24.98,88,75,4.63,BR,2025-01-30
29,atafu village,-8.5421,-172.5159,28.49,76,78,8.25,TK,2025-01-30
30,rongelap,11.1635,166.8941,26.4,73,29,7.87,MH,2025-01-30
31,ust-nera,64.5667,143.2,-37.8,99,68,1.43,RU,2025-01-30
32,tolanaro,-25.0319,46.9987,25.16,88,1,3.63,MG,2025-01-30
33,hermanus,-34.4187,19.2345,18.22,82,100,8.16,ZA,2025-01-30
34,kirakira,-10.4544,161.9205,27.95,81,100,4.13,SB,2025-01-30
35,siracusa,37.0881,15.2792,10.18,75,99,0.45,IT,2025-01-30
36,saipan,15.1355,145.701,31.39,73,0,9.26,MP,2025-01-30
37,thunder bay,48.4001,-89.3168,-5.01,100,40,2.06,CA,2025-01-30
38,akureyri,65.6835,-18.0878,-2.04,93,100,1.54,IS,2025-01-30
39,holualoa,19.6228,-155.9522,26.91,68,100,12.35,US,2025-01-30
40,tura,25.5198,90.2201,14.17,97,100,1.71,IN,2025-01-30
41,sibu,2.3,111.8167,24.17,100,40,1.03,MY,2025-01-30
42,newman,37.3138,-121.0208,13.36,65,5,1.34,US,2025-01-30
43,isafjordur,66.0755,-23.124,-3.04,72,26,5.59,IS,2025-01-30
44,afaahiti,-17.75,-149.2833,26.64,77,19,6.95,PF,2025-01-30
45,kodiak,57.79,-152.4072,-4.27,39,0,5.14,US,2025-01-30
46,bredasdorp,-34.5322,20.0403,21.11,62,100,5.25,ZA,2025-01-30
47,whitehorse,60.7161,-135.0538,-21.1,70,100,5.66,CA,2025-01-30
48,bethel,41.3712,-73.414,-2.28,55,40,0.89,US,2025-01-30
49,stephenville,32.2207,-98.2023,16.07,30,0,4.63,US,2025-01-30
50,lorengau,-2.0226,147.2712,30.07,68,99,2.63,PG,2025-01-30
51,ormara,25.2088,64.6357,16.46,35,0,9.6,PK,2025-01-30
52,east london,-33.0153,27.9116,23.16,85,100,5.41,ZA,2025-01-30
53,nova sintra,14.8667,-24.7167,23.35,70,5,11.26,CV,2025-01-30
54,forster,-32.1667,152.5167,24.65,89,73,3.98,AU,2025-01-30
55,karyes,37.3,22.5,6.15,94,78,1.12,GR,2025-01-30
56,avarua,-21.2078,-159.775,29.03,79,20,5.14,CK,2025-01-30
57,shevchenko,48.5,35.0,5.09,93,97,2.31,UA,2025-01-30
58,susuman,62.7833,148.1667,-37.27,98,78,0.42,RU,2025-01-30
59,kutum,14.2,24.6667,11.11,32,7,4.28,SD,2025-01-30
60,downpatrick,54.3263,-5.7035,6.27,90,25,5.07,GB,2025-01-30
61,callao,-12.0667,-77.15,26.51,78,0,6.17,PE,2025-01-30
62,uruzgan,32.8333,66.0,-1.16,55,0,3.8,AF,2025-01-30
63,flying fish cove,-10.4217,105.6791,25.82,94,100,4.63,CX,2025-01-30
64,kismayo,-0.3582,42.5454,24.41,84,8,5.87,SO,2025-01-30
65,lukhovitsy,54.9728,39.0361,2.46,93,7,3.96,RU,2025-01-30
66,balabac,7.9868,117.0645,26.63,85,100,5.99,PH,2025-01-30
67,kiambu,-1.1667,36.8333,14.77,88,75,0.0,KE,2025-01-30
68,tiksi,71.6872,128.8694,-25.38,99,100,1.31,RU,2025-01-30
69,hotan,37.0997,79.9269,-2.79,34,100,0.72,CN,2025-01-30
70,hithadhoo,-0.6,73.0833,27.86,74,99,5.36,MV,2025-01-30
71,muravlenko,63.7898,74.523,-30.13,100,38,1.95,RU,2025-01-30
72,margaret river,-33.95,115.0667,24.38,63,0,4.11,AU,2025-01-30
73,edinburgh of the seven seas,-37.0676,-12.3116,14.85,63,26,3.22,SH,2025-01-30
74,gold camp,33.2937,-111.3043,12.17,53,0,1.92,US,2025-01-30
75,adi keyh,14.8444,39.3772,11.78,84,6,1.61,ER,2025-01-30
76,san patricio,28.017,-97.5169,17.48,70,99,3.0,US,2025-01-30
77,thompson,55.7435,-97.8558,-23.91,70,75,4.63,CA,2025-01-30
78,klyuchi,52.2667,79.1667,-14.39,95,98,4.0,RU,2025-01-30
79,kailua-kona,19.6406,-155.9956,28.98,69,100,12.35,US,2025-01-30
80,puerto ayora,-0.7393,-90.3518,24.75,96,11,0.89,EC,2025-01-30
81,eyl,7.9803,49.8164,21.43,83,44,7.39,SO,2025-01-30
82,wailua homesteads,22.0669,-159.378,26.44,81,100,10.8,US,2025-01-30
83,shingu,33.7333,135.9833,8.28,47,5,4.55,JP,2025-01-30
84,ust-tsilma,65.441,52.1498,-8.35,96,100,2.84,RU,2025-01-30
85,enewetak,11.3474,162.3373,26.76,77,39,8.55,MH,2025-01-30
86,chonchi,-42.6128,-73.8092,15.62,96,100,2.78,CL,2025-01-30
87,chateauneuf-sur-loire,47.8657,2.219,1.0,93,15,0.92,FR,2025-01-30
88,madan,41.5,24.95,4.81,90,82,1.59,BG,2025-01-30
89,bengkulu,-3.8004,102.2655,24.83,83,100,2.04,ID,2025-01-30
90,albany,42.6001,-73.9662,-4.2,58,99,0.89,US,2025-01-30
91,burgau,48.4316,10.4099,6.73,95,100,3.91,DE,2025-01-30
92,dolores,-36.3132,-57.6792,18.31,87,0,3.48,AR,2025-01-30
93,montrose,38.4166,-108.2673,-4.7,62,0,1.61,US,2025-01-30
94,ribeira grande,38.5167,-28.7,17.22,88,75,8.05,PT,2025-01-30
95,olonkinbyen,70.9221,-8.7187,-3.78,81,100,5.5,SJ,2025-01-30
96,henryetta,35.4398,-95.9819,9.97,66,11,3.98,US,2025-01-30
97,leava,-14.3,-178.1667,27.55,79,93,4.77,WF,2025-01-30
98,chernyshevskiy,63.0128,112.4714,-39.72,100,98,0.31,RU,2025-01-30
99,nemuro,43.3236,145.575,-0.63,74,100,10.14,JP,2025-01-30
100,nago,26.5881,127.9761,18.25,59,22,5.18,JP,2025-01-30
101,comodoro rivadavia,-45.8667,-67.5,23.92,29,0,2.57,AR,2025-01-30
102,la ronge,55.1001,-105.2842,-23.86,70,0,2.57,CA,2025-01-30
103,luderitz,-26.6481,15.1594,16.28,85,0,4.2,NA,2025-01-30
104,georgetown,5.4112,100.3354,25.96,72,20,3.09,MY,2025-01-30
105,longyearbyen,78.2186,15.6401,-0.09,80,40,4.12,SJ,2025-01-30
106,polyarnyy,69.1989,33.4478,-0.96,95,100,8.66,RU,2025-01-30
107,aldinga beach,-35.2793,138.4604,23.7,38,0,4.48,AU,2025-01-30
108,bismarck,46.8083,-100.7837,1.91,76,0,3.6,US,2025-01-30
109,tazovsky,67.4667,78.7,-27.09,98,96,3.19,RU,2025-01-30
110,nobres,-14.7203,-56.3275,22.08,91,100,8.28,BR,2025-01-30
111,lazaro cardenas,17.9583,-102.2,24.7,77,3,3.0,MX,2025-01-30
112,ternate,0.8,127.4,27.05,78,100,1.5,ID,2025-01-30
113,arteche,12.2645,125.4048,26.46,87,100,5.19,PH,2025-01-30
114,constantia,44.1833,28.65,7.61,89,100,3.22,RO,2025-01-30
115,ca mau,9.1769,105.15,24.83,73,100,1.29,VN,2025-01-30
116,hammerfest,70.6634,23.6821,-0.75,93,75,2.57,NO,2025-01-30
117,port mathurin,-19.6833,63.4167,26.86,84,99,10.1,MU,2025-01-30
118,iqaluit,63.7506,-68.5145,-20.73,70,75,9.77,CA,2025-01-30
119,eraan,9.0629,117.7016,27.92,76,80,2.3,PH,2025-01-30
120,severo-yeniseyskiy,60.3725,93.0408,-35.68,100,19,1.3,RU,2025-01-30
121,duminichi,53.9345,35.1099,1.61,95,9,2.24,RU,2025-01-30
122,nova vicosa,-17.8919,-39.3719,24.86,87,86,3.81,BR,2025-01-30
123,ongjin,37.9347,125.3619,-3.46,87,100,2.72,KP,2025-01-30
124,ladario,-19.0047,-57.6017,24.71,90,85,1.53,BR,2025-01-30
125,saint-pierre,-21.3393,55.4781,26.82,74,0,2.06,RE,2025-01-30
126,saudarkrokur,65.7461,-19.6394,-0.85,88,99,5.39,IS,2025-01-30
127,walker,30.7335,-95.5669,15.88,88,40,1.54,US,2025-01-30
128,bubaque,11.2833,-15.8333,25.15,70,0,2.62,GW,2025-01-30
129,yellowknife,62.456,-114.3525,-28.1,94,75,2.06,CA,2025-01-30
130,khilok,51.3674,110.4676,-28.46,99,89,0.85,RU,2025-01-30
131,okhotsk,59.3833,143.3,-20.49,73,0,6.46,RU,2025-01-30
132,gleno,-8.7211,125.4359,24.36,86,100,2.06,TL,2025-01-30
133,villa regina,-39.1,-67.0667,35.55,15,0,2.24,AR,2025-01-30
134,kokopo,-4.352,152.2633,30.09,64,91,3.69,PG,2025-01-30
135,ubari,26.5921,12.7805,12.13,35,5,3.75,LY,2025-01-30
136,yamada,39.4667,141.95,1.17,47,96,1.93,JP,2025-01-30
137,turriff,57.5384,-2.4593,1.54,73,100,3.02,GB,2025-01-30
138,betio village,1.358,172.9211,30.02,83,74,7.79,KI,2025-01-30
139,bilibino,68.0546,166.4372,-38.01,100,100,0.15,RU,2025-01-30
140,carahue,-38.7,-73.1667,12.31,89,0,0.87,CL,2025-01-30
141,wenatchee,47.4235,-120.3103,-0.53,77,0,1.54,US,2025-01-30
142,utrik,11.2278,169.8474,26.24,73,97,5.9,MH,2025-01-30
143,altamira,-3.2033,-52.2064,23.47,97,100,1.47,BR,2025-01-30
144,akkarampalle,13.65,79.42,21.59,94,20,0.51,IN,2025-01-30
145,la asuncion,11.0333,-63.8628,24.8,86,5,7.37,VE,2025-01-30
146,nassau,40.7507,-73.5829,0.96,56,0,1.54,US,2025-01-30
147,san matias,-16.3667,-58.4,24.12,94,80,1.51,BO,2025-01-30
148,hadibu,12.65,54.0333,22.82,75,65,4.49,YE,2025-01-30
149,hawkesbury,45.6001,-74.616,-10.84,97,100,1.98,CA,2025-01-30
150,el granada,37.5027,-122.4694,11.36,73,0,1.54,US,2025-01-30
151,gopalpur,19.2667,84.9167,20.99,89,3,3.03,IN,2025-01-30
152,cam ranh,11.9214,109.1591,21.98,68,0,2.57,VN,2025-01-30
153,kuraymah,18.55,31.85,16.25,29,6,5.58,SD,2025-01-30
154,tsiombe,-25.3,45.4833,24.69,86,85,2.77,MG,2025-01-30
155,santanyi,39.3546,3.1291,9.87,80,72,3.47,ES,2025-01-30
156,nadym,65.5333,72.5167,-24.61,99,85,3.85,RU,2025-01-30
157,jayapura,-2.5333,140.7,30.66,74,93,0.44,ID,2025-01-30
158,sur,22.5667,59.5289,20.35,59,0,5.79,OM,2025-01-30
159,sola,-13.8833,167.55,27.37,89,100,0.0,VU,2025-01-30
160,trairi,-3.2778,-39.2689,25.66,82,8,3.23,BR,2025-01-30
161,vilyuysk,63.7553,121.6247,-41.11,100,83,1.4,RU,2025-01-30
162,udachny,66.4167,112.4,-31.89,98,95,1.79,RU,2025-01-30
163,tralee,52.2704,-9.7026,7.16,89,13,4.27,IE,2025-01-30
164,nema,57.5067,50.5011,-0.17,98,100,2.69,RU,2025-01-30
165,goth garelo,27.4352,68.0755,12.83,26,0,2.7,PK,2025-01-30
166,goure,13.9835,10.2704,16.53,22,100,4.06,NE,2025-01-30
167,taltal,-25.4,-70.4833,20.2,84,22,1.16,CL,2025-01-30
168,porto novo,6.4965,2.6036,26.45,81,17,2.48,BJ,2025-01-30
169,levuka,50.1834,-105.4011,-3.15,86,100,4.12,CA,2025-01-30
170,labrador city,52.9463,-66.9114,-26.05,64,100,10.8,CA,2025-01-30
171,huarmey,-10.0681,-78.1522,22.64,81,99,3.96,PE,2025-01-30
172,vernon,50.2581,-119.2691,1.07,71,100,2.06,CA,2025-01-30
173,ayorou,14.7308,0.9174,21.05,15,5,3.61,NE,2025-01-30
174,tshabong,-26.05,22.45,27.12,27,32,3.73,BW,2025-01-30
175,road town,18.4167,-64.6167,26.02,83,40,4.12,VG,2025-01-30
176,port elizabeth,-33.918,25.5701,20.73,93,0,0.45,ZA,2025-01-30
177,aral,40.5156,81.2636,-6.52,41,16,1.33,CN,2025-01-30
178,tenosique,17.4833,-91.4333,27.24,68,6,4.33,MX,2025-01-30
179,dadukou,26.5479,101.7054,9.83,77,55,0.41,CN,2025-01-30
180,anadyr,64.75,177.4833,-16.72,77,100,7.0,RU,2025-01-30
181,kapuskasing,49.4169,-82.4331,-10.95,85,100,3.6,CA,2025-01-30
182,gaspe,48.8334,-64.4819,-17.88,50,0,5.66,CA,2025-01-30
183,petropavlovsk-kamchatsky,53.0452,158.6483,-2.67,46,75,5.0,RU,2025-01-30
184,mount gambier,-37.8333,140.7667,22.9,42,0,3.97,AU,2025-01-30
185,dunedin,-45.8742,170.5036,16.74,68,27,3.48,NZ,2025-01-30
186,vadso,70.0744,29.7487,-0.91,93,100,7.72,NO,2025-01-30
187,badger,64.8,-147.5333,-25.57,71,100,0.0,US,2025-01-30
188,zeya,53.75,127.2667,-16.47,82,100,1.13,RU,2025-01-30
189,inarajan village,13.2736,144.7484,29.66,79,100,10.22,GU,2025-01-30
190,preobrazheniye,42.9019,133.9064,-9.31,53,0,3.09,RU,2025-01-30
191,yuxia,34.0615,108.6291,4.77,85,99,0.43,CN,2025-01-30
192,soanierana ivongo,-16.9167,49.5833,25.55,86,6,1.39,MG,2025-01-30
193,chibougamau,49.9168,-74.3659,-20.21,84,100,3.09,CA,2025-01-30
194,pingshan,22.9938,114.7131,16.82,54,100,1.51,CN,2025-01-30
195,talnakh,69.4865,88.3972,-21.4,99,100,3.54,RU,2025-01-30
196,santa elena de uairen,4.6167,-61.1333,19.99,80,100,2.12,VE,2025-01-30
197,nkhotakota,-12.9274,34.2961,22.76,85,100,1.59,MW,2025-01-30
198,saldanha,-33.0117,17.9442,18.02,87,100,4.25,ZA,2025-01-30
199,west island,-12.1568,96.8225,27.99,89,100,2.06,CC,2025-01-30
200,egilsstadir,65.2653,-14.3948,4.95,65,75,11.83,IS,2025-01-30
201,wanning,18.8003,110.3967,21.34,83,68,1.1,CN,2025-01-30
202,la'ie,21.6477,-157.9253,25.66,76,100,11.5,US,2025-01-30
203,turtas,58.9417,69.1325,-29.4,100,96,0.36,RU,2025-01-30
204,fortuna,40.5982,-124.1573,11.63,66,0,3.09,US,2025-01-30
205,buckeye,33.3703,-112.5838,15.42,43,0,2.57,US,2025-01-30
206,graaff-reinet,-32.2522,24.5308,17.73,92,0,0.69,ZA,2025-01-30
207,sabang,5.8933,95.3214,27.4,67,87,6.27,ID,2025-01-30
208,naze,28.3667,129.4833,13.51,59,0,2.98,JP,2025-01-30
209,gereida,11.2811,25.1414,16.57,24,0,5.7,SD,2025-01-30
210,woods creek,47.8787,-121.8985,5.8,80,100,2.23,US,2025-01-30
211,cherdyn',60.403,56.4787,-5.25,96,100,3.28,RU,2025-01-30
212,castillos,-34.1667,-53.8333,20.39,75,0,3.54,UY,2025-01-30
213,lebu,-37.6167,-73.65,14.48,88,0,2.15,CL,2025-01-30
214,askoy,60.4092,5.226,2.09,100,40,0.0,NO,2025-01-30
215,aykhal,66.0,111.5,-28.05,97,99,2.95,RU,2025-01-30
216,beau vallon,-20.4189,57.6953,25.13,88,40,2.06,MU,2025-01-30
217,talitsa,56.8804,60.0213,-6.31,96,100,1.49,RU,2025-01-30
218,poxoreo,-15.8372,-54.3892,22.98,94,100,1.48,BR,2025-01-30
219,hawaiian paradise park,19.5933,-154.9731,28.28,76,100,3.13,US,2025-01-30
220,melekeok village,7.4957,134.6367,30.31,70,75,6.69,PW,2025-01-30
221,kavaratti,10.5669,72.642,27.29,71,44,2.24,IN,2025-01-30
222,hasaki,35.7333,140.8333,7.5,34,0,6.25,JP,2025-01-30
223,wuhai,39.6647,106.8122,-7.08,64,93,2.63,CN,2025-01-30
224,zhizdra,53.746,34.7395,1.7,93,23,2.32,RU,2025-01-30
225,santa cruz,-17.8,-63.1667,25.7,83,40,1.03,BO,2025-01-30
226,madimba,-10.4,40.3333,26.25,91,28,5.16,TZ,2025-01-30
227,slave lake,55.2834,-114.769,-14.01,78,100,5.14,CA,2025-01-30
228,aioun,16.6614,-9.6149,19.97,13,0,5.23,MR,2025-01-30
229,marijampole,54.5667,23.35,5.03,86,100,4.06,LT,2025-01-30
230,dabeiba,7.0017,-76.2672,22.56,98,100,0.42,CO,2025-01-30
231,sagua la grande,22.8067,-80.0756,20.69,73,0,4.39,CU,2025-01-30
232,kiunga,-6.1219,141.2906,24.22,98,100,1.37,PG,2025-01-30
233,cova figueira,14.8905,-24.2934,17.39,56,1,7.25,CV,2025-01-30
234,la sarre,48.8002,-79.1996,-11.68,97,100,1.29,CA,2025-01-30
235,farkhar,36.5729,69.8578,-6.79,78,97,3.08,AF,2025-01-30
236,kashin,57.3592,37.6081,4.25,85,100,5.14,RU,2025-01-30
237,andovoranto,-18.95,49.1,26.21,94,2,2.61,MG,2025-01-30
238,valle nacional,17.7833,-96.3167,25.59,86,31,1.07,MX,2025-01-30
239,kijang,35.2442,129.2139,-1.15,49,100,1.62,KR,2025-01-30
240,fort bragg,35.139,-79.006,13.91,41,100,2.06,US,2025-01-30
241,winnemucca,40.973,-117.7357,6.03,28,0,1.54,US,2025-01-30
242,queenstown,-31.8976,26.8753,21.92,72,69,0.67,ZA,2025-01-30
243,aasiaat,68.7098,-52.8699,-13.27,75,93,5.19,GL,2025-01-30
244,san jose del guaviare,2.5729,-72.6459,23.34,95,95,0.86,CO,2025-01-30
245,jamestown,42.097,-79.2353,3.9,66,0,4.63,US,2025-01-30
246,pasighat,28.0667,95.3333,14.87,87,100,1.04,IN,2025-01-30
247,yingshang chengguanzhen,32.6295,116.2701,5.03,77,100,4.41,CN,2025-01-30
248,tommot,58.9564,126.2925,-27.27,96,100,0.69,RU,2025-01-30
249,haiku-pauwela,20.9219,-156.3051,25.67,79,100,15.95,US,2025-01-30
250,bartica,6.4,-58.6167,22.3,94,75,1.33,GY,2025-01-30
251,miguel ahumada,30.6167,-106.5167,10.33,27,0,7.22,MX,2025-01-30
252,shenjiamen,29.9576,122.298,12.62,79,96,6.74,CN,2025-01-30
253,gadzhiyevo,69.2551,33.3362,-0.89,95,100,8.64,RU,2025-01-30
254,iskateley,67.6803,53.1512,-19.31,100,67,2.49,RU,2025-01-30
255,coquimbo,-29.9533,-71.3436,17.85,87,20,3.6,CL,2025-01-30
256,turbat,26.0023,63.044,13.14,18,0,9.83,PK,2025-01-30
257,aripuana,-9.1667,-60.6333,22.7,99,91,0.57,BR,2025-01-30
258,dudinka,69.4058,86.1778,-22.81,97,100,6.1,RU,2025-01-30
259,canutama,-6.5339,-64.3831,23.0,97,57,0.61,BR,2025-01-30
260,shenkursk,62.1091,42.896,1.44,100,100,4.06,RU,2025-01-30
261,lieksa,63.3167,30.0167,-1.6,93,100,6.51,FI,2025-01-30
262,severnoye,56.3491,78.3619,-20.22,98,100,2.38,RU,2025-01-30
263,vila franca do campo,37.7167,-25.4333,16.23,88,100,4.11,PT,2025-01-30
264,pasni,25.2631,63.471,15.49,33,0,8.41,PK,2025-01-30
265,khunti,23.0833,85.2833,14.06,34,3,0.99,IN,2025-01-30
266,howard springs,-12.497,131.047,29.37,79,100,1.84,AU,2025-01-30
267,kokstad,-30.5472,29.4241,18.02,85,78,2.04,ZA,2025-01-30
268,yako,12.9667,-2.2667,21.87,14,99,4.19,BF,2025-01-30
269,saint-philippe,-21.3585,55.7679,26.96,82,43,4.45,RE,2025-01-30
270,lata,40.1629,-8.3327,4.55,85,100,1.41,PT,2025-01-30
271,tha khanon,9.0302,98.9529,19.9,89,100,0.83,TH,2025-01-30
272,dryden,49.7833,-92.7503,-4.84,86,100,3.6,CA,2025-01-30
273,daru,-9.0763,143.2092,28.13,80,100,4.67,PG,2025-01-30
274,egersund,58.4513,5.9997,2.29,84,9,2.12,NO,2025-01-30
275,shuangcheng,45.35,126.2833,-17.71,85,69,2.7,CN,2025-01-30
276,minas de marcona,-15.2119,-75.1103,17.73,79,100,5.12,PE,2025-01-30
277,luang prabang,19.8856,102.1347,15.98,94,34,1.03,LA,2025-01-30
278,murray bridge,-35.1167,139.2667,23.62,31,0,3.72,AU,2025-01-30
279,lianran,24.9227,102.485,5.3,94,27,1.53,CN,2025-01-30
280,mananjary,-21.2167,48.3333,25.86,94,29,2.84,MG,2025-01-30
281,maba,24.6841,113.5984,17.04,66,85,0.72,CN,2025-01-30
282,farnham,51.2143,-0.7959,3.19,90,100,2.57,GB,2025-01-30
283,colonia,50.9333,6.95,3.28,90,40,0.51,DE,2025-01-30
284,mersing,2.4312,103.8405,24.95,83,20,3.6,MY,2025-01-30
285,birjand,32.8663,59.2211,-5.74,38,0,2.06,IR,2025-01-30
286,fale old settlement,-9.3852,-171.2468,28.83,67,9,8.16,TK,2025-01-30
287,shimoda,34.6667,138.95,6.86,62,70,1.81,JP,2025-01-30
288,juan griego,11.0817,-63.9655,24.94,87,6,5.7,VE,2025-01-30
289,qaqortoq,60.7167,-46.0333,-7.43,70,100,4.65,GL,2025-01-30
290,mount isa,-20.7333,139.5,36.87,34,1,6.17,AU,2025-01-30
291,burao,9.5221,45.5336,14.92,59,3,3.91,SO,2025-01-30
292,pacific grove,36.6177,-121.9166,11.06,81,75,2.06,US,2025-01-30
293,lianjiang,21.6467,110.2817,18.71,80,20,6.22,CN,2025-01-30
294,alice springs,-23.7,133.8833,32.75,12,0,8.75,AU,2025-01-30
295,crane,31.3974,-102.3501,11.7,27,0,9.7,US,2025-01-30
296,upper grand lagoon,30.1633,-85.7408,16.7,88,100,0.89,US,2025-01-30
297,el nido,11.1858,119.3956,25.64,90,89,6.26,PH,2025-01-30
298,port hedland,-20.3167,118.5667,33.03,66,62,4.12,AU,2025-01-30
299,pasuquin,18.3328,120.6177,24.97,83,75,0.51,PH,2025-01-30
300,ulsteinvik,62.3432,5.8487,4.06,92,100,0.97,NO,2025-01-30
301,fort st. john,56.2499,-120.8529,-16.06,78,100,7.2,CA,2025-01-30
302,muroto-misakicho,33.2833,134.15,7.42,53,3,3.33,JP,2025-01-30
303,margate,51.3813,1.3862,3.72,82,99,5.23,GB,2025-01-30
304,itoman,26.1247,127.6694,18.94,63,75,4.63,JP,2025-01-30
305,conneaut,41.9476,-80.5542,6.62,66,100,7.31,US,2025-01-30
306,inari,68.906,27.0288,-5.82,99,100,0.51,FI,2025-01-30
307,inirida,3.8653,-67.9239,23.94,95,93,0.91,CO,2025-01-30
308,speedway,39.8023,-86.2672,5.3,87,100,5.14,US,2025-01-30
309,shangzhi,45.2167,127.9667,-17.51,92,100,3.85,CN,2025-01-30
310,letlhakeng,-24.0944,25.0298,21.38,48,8,2.72,BW,2025-01-30
311,matoury,4.8483,-52.3317,26.98,83,20,3.09,GF,2025-01-30
312,natchitoches,31.7668,-93.1335,16.99,100,100,0.0,US,2025-01-30
313,bonthe,7.5264,-12.505,25.65,88,0,1.67,SL,2025-01-30
314,port lincoln,-34.7333,135.8667,20.15,65,9,6.22,AU,2025-01-30
315,togur,58.3631,82.8265,-25.92,99,26,1.89,RU,2025-01-30
316,kourou,5.1552,-52.6478,24.77,90,78,3.69,GF,2025-01-30
317,general villegas,-35.0328,-63.0125,25.52,41,0,3.94,AR,2025-01-30
318,kargil,34.5667,76.1,-17.23,97,100,0.44,IN,2025-01-30
319,botad,22.1667,71.6667,17.7,57,4,3.67,IN,2025-01-30
320,laborde,-33.1532,-62.8566,25.2,34,0,3.75,AR,2025-01-30
321,onguday,50.75,86.15,-16.39,97,100,0.89,RU,2025-01-30
322,hamilton,39.1834,-84.5333,6.07,91,100,5.66,US,2025-01-30
323,krotoszyn,51.6987,17.4374,4.68,88,100,2.69,PL,2025-01-30
324,yerofey pavlovich,53.9667,121.9667,-19.45,87,100,0.8,RU,2025-01-30
325,hotaka,36.3396,137.8825,0.44,72,20,1.54,JP,2025-01-30
326,viqueque,-8.8673,126.3658,27.58,82,100,1.03,TL,2025-01-30
327,fredrikstad,59.2181,10.9298,1.99,94,100,2.06,NO,2025-01-30
328,lihue,21.9789,-159.3672,26.52,83,97,11.56,US,2025-01-30
329,abepura,-2.6333,140.5833,30.45,70,20,1.03,ID,2025-01-30
330,vorgashor,67.5833,63.95,-19.44,99,89,1.99,RU,2025-01-30
331,chegdomyn,51.1167,133.0167,-20.22,91,100,0.62,RU,2025-01-30
332,qoryooley,1.7878,44.53,22.86,90,2,5.47,SO,2025-01-30
333,the pas,53.8251,-101.2541,-24.99,70,0,3.09,CA,2025-01-30
334,al ghayzah,16.2079,52.176,19.67,45,77,2.82,YE,2025-01-30
335,kabo,7.6994,18.629,20.21,19,64,2.01,CF,2025-01-30
336,lospalos,-8.5186,127.0025,27.14,75,100,1.79,TL,2025-01-30
337,acajutla,13.5928,-89.8275,26.14,75,0,3.28,SV,2025-01-30
338,basco,20.4487,121.9702,22.73,79,100,11.09,PH,2025-01-30
339,dedougou,12.4667,-3.4667,22.47,15,79,3.63,BF,2025-01-30
340,panaba,21.2833,-88.2667,24.7,74,0,5.05,MX,2025-01-30
341,choyr,46.3611,108.3611,-22.72,100,87,2.1,MN,2025-01-30
342,touros,-5.1989,-35.4608,26.69,74,10,4.61,BR,2025-01-30
343,lautoka,-17.6167,177.4667,27.92,69,75,2.57,FJ,2025-01-30
344,rabo de peixe,37.8,-25.5833,15.73,77,75,6.17,PT,2025-01-30
345,lerwick,60.1545,-1.1494,4.57,85,100,5.43,GB,2025-01-30
346,codrington,-38.2667,141.9667,21.51,47,1,5.58,AU,2025-01-30
347,anna regina,7.2644,-58.5077,25.32,84,80,4.05,GY,2025-01-30
348,laguna,38.421,-121.4238,13.08,67,0,3.09,US,2025-01-30
349,zahedan,29.4963,60.8629,-0.05,51,0,2.06,IR,2025-01-30
350,alofi,-19.0595,-169.9187,29.94,74,75,5.66,NU,2025-01-30
351,kingston,17.997,-76.7936,26.53,78,75,4.63,JM,2025-01-30
352,tejen,37.3834,60.5054,1.24,64,0,2.44,TM,2025-01-30
353,punta arenas,-53.15,-70.9167,11.06,62,40,4.63,CL,2025-01-30
354,hukumati azrah,34.1736,69.6457,-8.39,69,1,1.08,AF,2025-01-30
355,de aar,-30.6497,24.0123,22.71,42,0,1.4,ZA,2025-01-30
356,dalbandin,28.8947,64.4101,4.86,52,4,2.55,PK,2025-01-30
357,luanco,43.6152,-5.7934,7.71,87,69,2.24,ES,2025-01-30
358,poso,-1.3959,120.7524,28.26,71,100,0.51,ID,2025-01-30
359,tarawa,1.419,172.984,30.05,79,20,6.17,KI,2025-01-30
360,ribeira brava,32.65,-17.0667,16.35,72,24,2.16,PT,2025-01-30
361,wainwright,52.839,-110.8572,-12.33,93,100,4.33,CA,2025-01-30
362,mirnyy,62.5353,113.9611,-36.66,100,85,0.22,RU,2025-01-30
363,mount hagen,-5.8581,144.2274,20.42,78,40,1.54,PG,2025-01-30
364,isangel,-19.55,169.2667,30.06,79,75,2.06,VU,2025-01-30
365,olyokminsk,60.3736,120.4264,-32.6,98,100,0.52,RU,2025-01-30
366,solnechnyy,50.7214,136.6319,-12.11,66,100,1.73,RU,2025-01-30
367,palmas,-10.2128,-48.3603,24.93,88,40,0.51,BR,2025-01-30
368,nouadhibou,20.931,-17.0347,17.99,68,0,10.8,MR,2025-01-30
369,jhang sadr,31.2715,72.3284,10.45,38,0,2.0,PK,2025-01-30
370,east ballina,-28.8667,153.5833,26.96,69,31,4.79,AU,2025-01-30
371,ust'-kut,56.7938,105.7672,-37.1,100,85,0.66,RU,2025-01-30
372,nerchinsk,51.9833,116.5833,-35.03,100,100,0.39,RU,2025-01-30
373,carnarvon,-24.8667,113.6333,29.76,67,0,3.21,AU,2025-01-30
374,wawa,9.9022,4.4192,25.07,26,1,2.42,NG,2025-01-30
375,toliara,-23.35,43.6667,25.36,89,33,1.74,MG,2025-01-30
376,ta'izz,13.5,44.0,15.88,67,81,0.77,YE,2025-01-30
377,rib mountain,44.9128,-89.6754,0.37,74,0,2.06,US,2025-01-30
378,keflavik,64.0049,-22.5624,1.24,69,75,3.09,IS,2025-01-30
379,kone,-21.0595,164.8658,32.42,49,99,4.15,NC,2025-01-30
380,dhamnod,22.2167,75.4667,18.36,41,6,1.13,IN,2025-01-30
381,kushiro,42.975,144.3747,-0.47,64,75,6.17,JP,2025-01-30
382,marsabit,2.3284,37.9899,20.23,56,4,2.54,KE,2025-01-30
383,aban,56.67,96.06,-31.07,99,6,2.21,RU,2025-01-30
384,tianpeng,30.9866,103.9393,6.8,91,100,1.96,CN,2025-01-30
385,praia da vitoria,38.7333,-27.0667,16.14,77,40,7.6,PT,2025-01-30
386,sitangkai,4.6628,119.3928,27.59,79,27,3.9,PH,2025-01-30
387,agat village,13.3886,144.6585,29.42,78,99,2.24,GU,2025-01-30
388,munsan,37.8594,126.785,-2.55,64,96,1.16,KR,2025-01-30
389,batikent,39.9683,32.7308,-0.4,45,100,0.83,TR,2025-01-30
390,sao vicente,-23.9631,-46.3919,23.86,26,100,0.89,BR,2025-01-30
391,usogorsk,63.4106,48.6872,0.66,98,100,2.95,RU,2025-01-30
392,padang,-0.9492,100.3543,25.03,79,72,0.88,ID,2025-01-30
393,bhainsdehi,21.6467,77.6325,16.08,34,9,1.51,IN,2025-01-30
394,boda,4.3189,17.4695,21.65,24,94,1.28,CF,2025-01-30
395,ati,13.2154,18.3353,17.19,24,21,5.1,TD,2025-01-30
396,antsiranana,-12.2787,49.2917,26.86,83,23,4.93,MG,2025-01-30
397,uturoa,-16.7333,-151.4333,27.94,75,9,7.7,PF,2025-01-30
398,sao jose da coroa grande,-8.8978,-35.1478,25.55,74,2,3.6,BR,2025-01-30
399,la passe,45.5549,-0.8967,5.23,87,77,3.18,FR,2025-01-30
400,saint-francois,46.4154,3.9054,5.69,88,100,4.12,FR,2025-01-30
401,penzance,50.1186,-5.5371,9.38,83,99,11.93,GB,2025-01-30
402,freguesia do ribeirao da ilha,-27.7177,-48.5627,23.92,79,75,2.57,BR,2025-01-30
403,the pinery,39.4553,-104.7344,1.62,54,1,0.89,US,2025-01-30
404,ziro,27.6333,93.8333,3.65,95,98,0.23,IN,2025-01-30
405,bucerias,20.75,-105.3333,21.99,68,40,4.12,MX,2025-01-30
406,geraldton,-28.7667,114.6,28.23,61,0,4.63,AU,2025-01-30
407,viet tri,21.3019,105.4308,18.09,86,100,1.86,VN,2025-01-30
408,greymouth,-42.4667,171.2,18.45,61,100,3.13,NZ,2025-01-30
409,walvis bay,-22.9575,14.5053,18.11,80,90,6.42,NA,2025-01-30
410,alapli,41.1694,31.3792,11.14,67,100,1.58,TR,2025-01-30
411,tarko-sale,64.9225,77.785,-28.52,98,100,3.3,RU,2025-01-30
412,port saint john's,-31.6229,29.5448,23.49,90,8,2.87,ZA,2025-01-30
413,mugia,43.1041,-9.2179,7.17,75,99,1.15,ES,2025-01-30
414,wajir,1.7471,40.0573,24.86,68,0,5.92,KE,2025-01-30
415,bumba,2.1833,22.4667,20.9,39,46,0.52,CD,2025-01-30
416,avallon,47.4833,3.9,4.43,86,100,1.93,FR,2025-01-30
417,mthatha,-31.5889,28.7844,20.3,93,16,0.51,ZA,2025-01-30
418,belmonte,-15.8631,-38.8828,24.47,86,0,2.14,BR,2025-01-30
419,yamazakicho-nakabirose,35.0,134.55,4.57,63,8,2.78,JP,2025-01-30
420,kristiansund,63.1115,7.732,5.07,81,100,3.6,NO,2025-01-30
421,bafq,31.6128,55.4107,3.21,41,4,3.65,IR,2025-01-30
422,prineville,44.2999,-120.8345,10.39,36,0,0.45,US,2025-01-30
423,abra pampa,-22.7205,-65.697,12.53,65,100,3.62,AR,2025-01-30
424,coron,11.9986,120.2043,28.18,73,69,6.39,PH,2025-01-30
425,new norfolk,-42.7826,147.0587,22.73,39,18,2.45,AU,2025-01-30
426,andalgala,-27.5819,-66.3165,24.67,58,0,3.67,AR,2025-01-30
427,glace bay,46.1969,-59.957,-12.14,81,75,5.36,CA,2025-01-30
428,igarka,67.4667,86.5833,-25.56,93,100,4.18,RU,2025-01-30
429,mega,4.05,38.3,16.81,41,9,1.62,ET,2025-01-30
430,garachico,28.7781,-17.7646,16.06,55,100,7.72,ES,2025-01-30
431,monrovia,6.3005,-10.7969,26.75,84,14,2.35,LR,2025-01-30
432,mangrol,21.1167,70.1167,19.35,80,55,4.24,IN,2025-01-30
433,dawei,14.0833,98.2,21.63,65,65,1.35,MM,2025-01-30
434,dolny kubin,49.2098,19.3034,2.48,85,100,1.6,SK,2025-01-30
435,mili,6.0815,171.735,27.47,78,62,7.51,MH,2025-01-30
436,tamanrasset,22.785,5.5228,11.95,22,0,4.63,DZ,2025-01-30
437,kedrovyy,56.1667,91.8167,-28.51,98,17,2.71,RU,2025-01-30
438,nar'yan-mar,67.6713,53.087,-19.22,100,67,2.49,RU,2025-01-30
439,rong kwang,18.339,100.3174,18.02,63,45,0.43,TH,2025-01-30
440,pangkalpinang,-2.1333,106.1333,26.85,75,24,3.14,ID,2025-01-30
441,kisangani,0.5167,25.2,21.12,61,85,0.76,CD,2025-01-30
442,taishan,22.2514,112.7799,17.68,79,100,1.52,CN,2025-01-30
443,kuqa,41.7278,82.9364,-7.83,76,100,1.13,CN,2025-01-30
444,timimoun,29.2639,0.231,14.21,30,100,2.57,DZ,2025-01-30
445,tual,-5.6667,132.75,28.37,79,97,7.35,ID,2025-01-30
446,buncrana,55.1333,-7.45,6.92,85,100,8.99,IE,2025-01-30
447,serov,59.6033,60.5787,-17.54,99,100,2.18,RU,2025-01-30
448,axim,4.8699,-2.2405,26.17,89,6,2.24,GH,2025-01-30
449,evinayong,1.4368,10.5512,20.72,98,100,1.01,GQ,2025-01-30
450,sinazongwe,-17.2614,27.4618,23.03,82,80,2.26,ZM,2025-01-30
451,lionel town,17.8101,-77.2406,25.51,81,19,3.74,JM,2025-01-30
452,opp,31.2827,-86.2555,17.57,88,32,3.16,US,2025-01-30
453,valparaiso,-33.0393,-71.6273,15.8,82,0,1.54,CL,2025-01-30
454,cambridge,43.3601,-80.3127,-2.79,81,0,3.09,CA,2025-01-30
455,castelli,-25.9468,-60.6195,26.45,55,46,2.06,AR,2025-01-30
456,channarayapatna,12.9044,76.3917,17.96,80,44,1.33,IN,2025-01-30
457,tome,-36.6167,-72.95,16.34,90,0,2.43,CL,2025-01-30
458,todos santos,23.45,-110.2167,18.58,70,1,1.41,MX,2025-01-30
459,gisborne,-38.6533,178.0042,20.48,68,100,2.89,NZ,2025-01-30
460,mawu,34.4307,104.9176,-9.14,82,100,1.72,CN,2025-01-30
461,mata-utu,-13.2816,-176.1745,27.87,79,18,5.95,WF,2025-01-30
462,berdigestyakh,62.0989,126.6992,-40.32,100,100,0.54,RU,2025-01-30
463,ta`u,-14.2336,-169.5144,27.92,77,25,9.01,AS,2025-01-30
464,kruisfontein,-34.0033,24.7314,18.94,84,0,2.97,ZA,2025-01-30
465,cabo san lucas,22.8909,-109.9124,20.42,58,0,2.06,MX,2025-01-30
466,ciudad lazaro cardenas,17.9583,-102.2,24.7,77,3,3.0,MX,2025-01-30
467,pitimbu,-7.4706,-34.8086,26.27,72,2,4.17,BR,2025-01-30
468,mizdah,31.4451,12.9801,8.94,33,0,2.4,LY,2025-01-30
469,tocopilla,-22.092,-70.1979,22.38,76,63,3.77,CL,2025-01-30
470,serik,36.9169,31.0989,10.14,78,50,3.0,TR,2025-01-30
471,neka,36.6508,53.299,4.31,79,0,1.56,IR,2025-01-30
472,colac,-38.3333,143.5833,25.25,31,0,0.31,AU,2025-01-30
473,minbu,20.1833,94.8833,16.77,48,38,0.72,MM,2025-01-30
474,berezovo,63.9381,65.0419,-26.17,100,88,1.85,RU,2025-01-30
475,aitape,-3.1374,142.3475,28.35,78,100,1.16,PG,2025-01-30
476,pamandzi,-12.7967,45.2794,27.88,89,40,7.72,YT,2025-01-30
477,san pedro pochutla,15.7333,-96.4667,26.51,79,0,2.14,MX,2025-01-30
478,kikwit,-5.041,18.8162,21.63,89,100,0.7,CD,2025-01-30
479,al jumum,21.6169,39.6981,23.07,39,0,5.03,SA,2025-01-30
480,selfoss,63.9331,-20.9971,-4.58,74,87,2.14,IS,2025-01-30
481,le port,-20.9373,55.2919,24.98,98,48,2.12,RE,2025-01-30
482,ravar,31.2656,56.8055,2.45,40,1,1.2,IR,2025-01-30
483,federacion,-31.0062,-57.8996,25.38,41,0,3.06,AR,2025-01-30
484,korla,41.7597,86.1469,-7.51,74,100,1.87,CN,2025-01-30
485,trebes,43.2106,2.4417,9.74,87,100,7.72,FR,2025-01-30
486,machico,32.7,-16.7667,16.35,65,20,7.2,PT,2025-01-30
487,namsos,64.4662,11.4957,2.95,93,100,1.54,NO,2025-01-30
488,orchies,50.4667,3.2333,1.16,82,0,2.06,FR,2025-01-30
489,agua dulce,18.1333,-94.1333,25.29,88,0,3.24,MX,2025-01-30
490,bhinmal,25.0,72.25,12.67,39,0,0.77,IN,2025-01-30
491,djambala,-2.5447,14.7533,21.94,80,100,1.73,CG,2025-01-30
492,tidjikja,18.5564,-11.4271,17.95,16,0,5.72,MR,2025-01-30
493,sisimiut,66.9395,-53.6735,-8.14,70,100,6.98,GL,2025-01-30
494,san andres,12.5847,-81.7006,27.01,89,20,5.66,CO,2025-01-30
495,greenville,35.6127,-77.3663,11.97,50,100,2.24,US,2025-01-30
496,morehead city,34.7229,-76.726,11.0,71,0,1.54,US,2025-01-30
497,sodankyla,67.4167,26.6,-2.89,99,99,0.93,FI,2025-01-30
498,ulladulla,-35.35,150.4667,18.69,91,100,3.0,AU,2025-01-30
499,meadow lakes,61.6247,-149.6011,-15.4,72,0,0.0,US,2025-01-30
500,dunfermline,56.0716,-3.4589,3.57,88,75,2.57,GB,2025-01-30
501,umm kaddadah,13.6017,26.6876,15.04,27,11,7.68,SD,2025-01-30
502,monopoli,40.9559,17.2896,10.92,76,100,3.08,IT,2025-01-30
503,ain leuh,33.2921,-5.3384,1.28,94,100,3.47,MA,2025-01-30
504,argo,37.6333,22.7333,10.1,80,0,1.77,GR,2025-01-30
505,bathsheba,13.2167,-59.5167,27.34,69,20,8.23,BB,2025-01-30
506,kobryn,52.2138,24.3564,3.96,85,68,3.01,BY,2025-01-30
507,cidade velha,14.9167,-23.6167,21.26,78,0,9.77,CV,2025-01-30
508,katghora,22.5,82.55,14.67,56,2,2.25,IN,2025-01-30
509,port augusta,-32.5,137.7667,28.78,22,0,4.14,AU,2025-01-30
510,teyateyaneng,-29.1472,27.7489,19.57,60,100,0.71,LS,2025-01-30
511,candon,17.1947,120.4517,25.81,62,88,1.62,PH,2025-01-30
512,sinabang,2.4803,96.3801,25.76,82,100,0.41,ID,2025-01-30
513,kill devil hills,36.0307,-75.676,11.1,85,0,1.54,US,2025-01-30
514,novaya igirma,57.1334,103.9112,-36.72,100,34,0.29,RU,2025-01-30
515,yuzhno-kurilsk,44.0306,145.8556,-0.97,95,100,11.39,RU,2025-01-30
516,adrar,20.5022,-10.0711,15.86,20,0,5.49,MR,2025-01-30
517,lochow,52.5308,21.6816,3.84,83,93,3.68,PL,2025-01-30
518,san julian,21.0167,-102.1667,17.46,23,13,3.48,MX,2025-01-30
519,acapulco de juarez,16.8634,-99.8901,26.9,78,0,5.66,MX,2025-01-30
520,simitli,41.8833,23.1167,6.99,92,10,0.94,BG,2025-01-30
521,palmer,42.1584,-72.3287,-5.6,64,93,1.16,US,2025-01-30
522,khandyga,62.6667,135.6,-41.33,98,60,0.3,RU,2025-01-30
523,bakaly,55.1789,53.8028,-1.83,97,100,2.91,RU,2025-01-30
524,nieuw amsterdam,5.8833,-55.0833,24.76,88,97,4.08,SR,2025-01-30
525,acarau,-2.8856,-40.12,25.31,88,45,3.86,BR,2025-01-30
526,mendi,-6.1761,143.6513,16.69,89,100,0.69,PG,2025-01-30
527,murun-kuren,49.6342,100.1625,-20.29,95,100,0.96,MN,2025-01-30
528,gulf shores,30.246,-87.7008,19.13,84,0,4.12,US,2025-01-30
529,dassa-zoume,7.75,2.1833,27.68,66,14,2.15,BJ,2025-01-30
530,nishinoomote,30.7333,131.0,11.83,46,0,2.33,JP,2025-01-30
531,imbituba,-28.24,-48.6703,21.8,89,100,2.75,BR,2025-01-30
532,casper,42.8666,-106.3131,0.33,55,0,4.12,US,2025-01-30
533,dalnerechensk,45.9339,133.7225,-12.61,91,100,3.98,RU,2025-01-30
534,kralendijk,12.15,-68.2667,26.99,78,40,7.2,BQ,2025-01-30
535,langsa,4.4683,97.9683,22.95,89,5,0.69,ID,2025-01-30
536,manadhoo,5.7667,73.3833,27.32,72,19,2.72,MV,2025-01-30
537,brookings,44.3114,-96.7984,4.54,58,0,2.57,US,2025-01-30
538,happy valley-goose bay,53.3168,-60.3315,-19.64,69,100,5.96,CA,2025-01-30
539,al jawf,29.5,38.75,9.05,39,0,3.44,SA,2025-01-30
540,nguruka,-5.1092,31.0419,16.88,97,68,0.6,TZ,2025-01-30
541,roosevelt,33.9668,-103.4505,6.11,43,99,6.79,US,2025-01-30
542,antofagasta,-23.65,-70.4,20.6,84,62,2.75,CL,2025-01-30
543,bayanhongor,46.7167,100.1167,-25.15,85,64,1.58,MN,2025-01-30
544,tshikapa,-6.4167,20.8,20.64,96,100,0.2,CD,2025-01-30
545,prince rupert,54.3161,-130.3201,-0.7,61,61,1.73,CA,2025-01-30
546,luanda,-8.8368,13.2343,25.95,80,100,1.35,AO,2025-01-30
547,paradip garh,20.3167,86.6167,21.19,92,21,2.9,IN,2025-01-30
548,palikir - national government center,6.9248,158.1611,30.47,70,75,6.69,FM,2025-01-30
549,bardai,11.65,7.2333,17.53,23,2,4.75,NG,2025-01-30
550,atar,20.5169,-13.0499,17.25,23,0,4.61,MR,2025-01-30
551,grand falls-windsor,48.9332,-55.6649,-14.16,82,50,0.89,CA,2025-01-30
552,beruniy,41.6911,60.7525,-0.02,80,100,0.0,UZ,2025-01-30
553,kittila,67.6647,24.8936,-5.92,86,100,3.09,FI,2025-01-30
554,argostolion,38.1811,20.489,10.97,69,27,2.89,GR,2025-01-30
555,thinadhoo,0.5333,72.9333,27.67,79,100,5.41,MV,2025-01-30
556,manuguru,17.981,80.7547,18.73,89,76,1.24,IN,2025-01-30
557,jurm,36.8648,70.8342,-7.78,79,100,1.78,AF,2025-01-30
558,curup,-3.4667,102.5333,24.79,79,100,0.4,ID,2025-01-30
559,siwa oasis,29.2041,25.5195,13.64,49,0,3.41,EG,2025-01-30
560,chongwe,-15.3292,28.682,18.6,99,100,1.43,ZM,2025-01-30
561,ouro sogui,15.6,-13.3167,23.53,12,0,5.33,SN,2025-01-30
562,thetford-mines,46.0937,-71.3054,-23.37,100,58,1.61,CA,2025-01-30
563,hami,42.8,93.45,-6.42,51,100,2.11,CN,2025-01-30
564,aginskoye,51.1,114.53,-30.1,100,44,1.67,RU,2025-01-30
565,papao,-17.75,-149.55,30.82,75,9,7.75,PF,2025-01-30
566,kudahuvadhoo,2.6708,72.8944,27.46,75,100,4.99,MV,2025-01-30
567,fort mcmurray,56.7268,-111.381,-20.23,71,100,2.57,CA,2025-01-30
568,kodinsk,58.6881,99.1844,-36.44,100,34,1.15,RU,2025-01-30
569,madera,37.1666,-119.8343,13.97,62,4,1.58,US,2025-01-30
570,nabire,-3.3667,135.4833,29.62,69,100,1.15,ID,2025-01-30
571,villa bruzual,9.3328,-69.1208,27.13,60,87,1.95,VE,2025-01-30
572,oamaru,-45.0784,170.9801,16.98,69,12,4.59,NZ,2025-01-30
